City,Lat,Lon,Max_temp,Humidity,Cloudiness,Wind Speed,Country,Date
inhambane,-23.865,35.3833,26.88,80.0,13.0,0.79,MZ,1611982266.0
kavieng,-2.5744,150.7967,29.04,77.0,86.0,6.35,PG,1611982283.0
georgetown,5.4112,100.3354,31.0,55.0,20.0,1.54,MY,1611982136.0
hermanus,-34.4187,19.2345,17.22,89.0,64.0,2.38,ZA,1611982283.0
castro,-24.7911,-50.0119,17.05,94.0,100.0,1.46,BR,1611982283.0
kahului,20.8947,-156.47,23.0,73.0,40.0,7.72,US,1611982284.0
presidencia roque saenz pena,-26.7852,-60.4388,25.56,84.0,0.0,1.34,AR,1611982284.0
new norfolk,-42.7826,147.0587,24.44,57.0,81.0,1.34,AU,1611982284.0
punta arenas,-53.15,-70.9167,8.0,81.0,20.0,6.17,CL,1611982284.0
galveston,29.3669,-94.9669,15.56,82.0,1.0,6.17,US,1611982285.0
arraial do cabo,-22.9661,-42.0278,24.74,85.0,49.0,10.75,BR,1611982211.0
mataura,-46.1927,168.8643,19.47,45.0,0.0,0.95,NZ,1611982285.0
kaitangata,-46.2817,169.8464,14.44,67.0,22.0,3.58,NZ,1611982285.0
puerto ayora,-0.7393,-90.3518,25.56,93.0,33.0,2.24,EC,1611982286.0
saint anthony,45.0205,-93.218,-3.89,58.0,90.0,6.17,US,1611982286.0
hudson bay,52.85,-102.3842,-13.15,95.0,99.0,0.98,CA,1611982286.0
jamestown,42.097,-79.2353,-6.67,79.0,90.0,4.12,US,1611982032.0
port-de-paix,52.4675,96.11,-6.72,90.0,100.0,6.88,RU,1611982287.0
toora-khem,-33.65,115.3333,30.0,38.0,0.0,2.24,AU,1611982287.0
busselton,-15.7167,46.3167,24.0,83.0,20.0,2.57,MG,1611982287.0
mahajanga,-23.1203,-134.9692,26.34,77.0,35.0,5.64,PF,1611982287.0
rikitea,22.0752,-159.319,23.0,78.0,75.0,8.75,US,1611982288.0
kapaa,37.7167,-25.4333,15.0,94.0,40.0,2.06,PT,1611982288.0
vila franca do campo,55.4333,86.0833,-22.0,71.0,20.0,7.0,RU,1611982288.0
borovoy,-46.6,168.3333,12.27,74.0,0.0,6.84,NZ,1611982288.0
bluff,-46.1333,167.6833,17.42,55.0,0.0,3.05,NZ,1611982289.0
tuatapere,45.6285,-1.0281,12.0,100.0,90.0,6.17,FR,1611982289.0
royan,69.3,139.9,-34.24,87.0,100.0,1.09,RU,1611982289.0
deputatskiy,65.6145,-37.6368,-9.0,48.0,90.0,10.29,GL,1611982289.0
tasiilaq,1.6481,14.5806,22.74,90.0,100.0,1.07,CG,1611982290.0
jiddah,68.3499,-133.7218,-34.0,75.0,64.0,0.51,CA,1611982290.0
sembe,-7.8447,-79.1469,22.72,68.0,94.0,2.02,PE,1611982290.0
inuvik,-26.6481,15.1594,18.44,52.0,0.0,9.62,,1611982290.0
chicama,28.017,-97.5169,21.0,73.0,90.0,6.17,US,1611982291.0
luderitz,12.1167,-61.6167,25.0,83.0,20.0,6.17,GD,1611982291.0
san patricio,2.6708,72.8944,27.16,79.0,0.0,6.32,MV,1611982291.0
grenville,14.2,24.6667,9.95,43.0,0.0,4.43,SD,1611982291.0
kudahuvadhoo,54.2668,-110.735,-21.0,71.0,1.0,0.93,CA,1611982292.0
kutum,32.6667,-17.1,13.89,75.0,56.0,1.34,PT,1611982292.0
bonnyville,49.758,129.523,-26.09,85.0,29.0,3.48,RU,1611982292.0
ponta do sol,-19.7625,-44.3139,22.0,73.0,0.0,1.54,BR,1611982292.0
shirokiy,-54.8,-68.3,6.0,75.0,75.0,7.2,AR,1611982244.0
esmeraldas,-17.7125,-39.2481,23.48,89.0,0.0,1.89,BR,1611982293.0
ushuaia,45.3246,-118.0877,-1.11,85.0,85.0,0.84,US,1611982293.0
suzu,-34.5322,20.0403,17.22,89.0,87.0,2.86,ZA,1611982293.0
caravelas,-33.6971,-53.4616,19.53,94.0,6.0,0.54,UY,1611982294.0
la grande,16.2923,119.8062,26.12,60.0,2.0,3.13,PH,1611982294.0
bredasdorp,71.6872,128.8694,-34.08,85.0,100.0,2.34,RU,1611982294.0
chuy,29.1614,16.139,11.7,53.0,0.0,2.45,LY,1611982294.0
catuday,18.2116,-65.7349,23.0,78.0,20.0,2.06,PR,1611982295.0
tiksi,69.7008,170.3133,-34.4,85.0,28.0,2.0,RU,1611982295.0
waddan,71.0357,27.8492,-3.28,96.0,100.0,9.31,NO,1611982295.0
naguabo,-0.9492,100.3543,30.0,66.0,40.0,2.06,ID,1611982072.0
pevek,39.5994,-110.8107,-1.0,93.0,90.0,1.54,US,1611982296.0
mehamn,25.3573,55.4033,20.0,72.0,0.0,1.03,AE,1611982296.0
padang,4.95,-6.0833,24.72,91.0,28.0,2.1,CI,1611982296.0
price,-24.8667,113.6333,42.0,19.0,0.0,7.72,AU,1611982296.0
sharjah,10.2511,-74.9146,25.0,83.0,0.0,4.63,CO,1611982296.0
sassandra,6.5833,3.75,25.08,92.0,70.0,0.79,NG,1611981899.0
carnarvon,29.5833,-9.5,13.98,45.0,0.0,1.39,MA,1611982095.0
calamar,69.6496,18.957,-7.0,68.0,0.0,4.63,NO,1611982297.0
lagos,69.4541,-133.0374,-38.0,67.0,1.0,1.03,CA,1611982297.0
tiznit,41.7597,86.1469,-1.17,75.0,0.0,3.18,CN,1611982298.0
tromso,59.2353,163.0719,-12.26,94.0,100.0,8.58,RU,1611982298.0
tuktoyaktuk,-22.038,-63.6797,20.08,88.0,82.0,1.39,BO,1611982298.0
korla,62.456,-114.3525,-28.33,76.0,1.0,3.09,CA,1611982298.0
ossora,-11.3847,43.2844,28.07,77.0,76.0,5.05,KM,1611982299.0
yacuiba,34.3833,131.2,8.33,57.0,75.0,5.14,JP,1611982299.0
yellowknife,42.6001,-73.9662,-13.33,76.0,2.0,3.63,US,1611982095.0
mitsamiouli,-10.7073,22.2247,18.01,98.0,95.0,0.65,AO,1611982299.0
mys shmidta,-21.2078,-159.775,27.0,83.0,40.0,2.57,CK,1611982300.0
nagato,27.6298,85.5214,11.0,62.0,20.0,2.57,NP,1611982300.0
albany,36.4009,47.1133,-2.65,95.0,66.0,3.57,IR,1611982301.0
luau,-31.9333,115.8333,33.89,18.0,0.0,7.2,AU,1611982095.0
sentyabrskiy,41.6103,20.0089,9.0,93.0,90.0,1.54,AL,1611982301.0
avarua,-37.6167,-73.65,13.13,91.0,69.0,2.43,CL,1611982088.0
banepa,14.9709,8.8879,14.02,33.0,36.0,6.04,NE,1611982301.0
malwan,-42.8794,147.3294,24.44,72.0,75.0,10.8,AU,1611982302.0
takab,73.5069,80.5464,-36.93,84.0,94.0,3.55,RU,1611982302.0
perth,-6.1349,12.3689,25.47,88.0,100.0,2.29,AO,1611982302.0
burrel,27.9667,73.55,20.05,20.0,0.0,2.12,IN,1611982302.0
lebu,-0.5853,30.2114,18.18,69.0,47.0,0.44,UG,1611982303.0
tanout,-41.1456,-71.3082,10.0,71.0,0.0,2.57,AR,1611982303.0
hobart,-33.5906,26.891,19.44,81.0,19.0,0.45,ZA,1611982304.0
dikson,78.2186,15.6401,-17.0,46.0,20.0,11.83,SJ,1611982304.0
soyo,69.4865,88.3972,-34.65,67.0,0.0,2.09,RU,1611982304.0
napasar,22.2855,114.1577,22.22,52.0,0.0,3.6,HK,1611982249.0
hihifo,49.1833,125.2167,-26.29,83.0,2.0,1.26,CN,1611982305.0
bushenyi,0.5333,72.9333,28.02,75.0,95.0,5.92,MV,1611982305.0
attawapiskat,71.2906,-156.7887,-24.0,70.0,75.0,3.6,US,1611982305.0
san carlos de bariloche,60.34,102.2797,-36.68,80.0,57.0,3.91,RU,1611982305.0
port alfred,41.3712,-73.414,-11.0,52.0,1.0,2.57,US,1611982306.0
longyearbyen,-33.1905,-68.4608,21.0,60.0,20.0,7.2,AR,1611982151.0
talnakh,24.4042,103.4428,15.72,67.0,98.0,3.42,CN,1611982306.0
victoria,52.4503,64.6311,-7.68,93.0,99.0,4.69,KZ,1611982306.0
nenjiang,-9.8,-139.0333,25.9,78.0,14.0,8.73,PF,1611982307.0
thinadhoo,38.0667,116.5667,10.63,36.0,6.0,4.21,CN,1611982307.0
barrow,65.282,-126.8329,-35.0,68.0,75.0,1.54,CA,1611982307.0
vanavara,-21.2,-175.2,27.0,83.0,90.0,6.17,TO,1611982307.0
bethel,36.3868,4.3989,13.55,50.0,0.0,1.88,DZ,1611982308.0
rivadavia,-11.8343,31.4529,17.76,93.0,100.0,1.09,ZM,1611982308.0
miyang,50.7165,-121.2859,-4.0,86.0,20.0,1.03,CA,1611982308.0
kushmurun,35.5281,-108.7426,-1.0,80.0,90.0,12.86,US,1611982308.0
atuona,36.6167,101.7667,-4.13,64.0,100.0,1.51,CN,1611982309.0
botou,-16.4833,-151.75,27.44,65.0,100.0,2.25,PF,1611982309.0
norman wells,51.3223,42.7678,1.11,94.0,100.0,10.01,RU,1611982309.0
vaini,40.5782,17.0374,9.44,76.0,0.0,4.12,IT,1611982309.0
tazmalt,-3.3333,128.9167,30.59,61.0,96.0,2.05,ID,1611982310.0
mpika,33.194,-82.5271,0.0,93.0,1.0,2.05,US,1611982310.0
atka,42.2506,-75.833,-12.78,85.0,90.0,3.09,US,1611982310.0
ashcroft,54.4299,31.8996,-6.69,97.0,100.0,6.66,RU,1611982311.0
gallup,45.41,79.9186,0.4,81.0,0.0,0.47,KZ,1611982311.0
xining,60.3964,-1.353,1.0,69.0,43.0,4.12,GB,1611982311.0
faanui,-33.9258,18.4232,21.11,94.0,75.0,1.54,ZA,1611982312.0
kamenka,59.3833,143.3,-21.21,85.0,0.0,4.17,RU,1611982312.0
palagiano,65.4167,-52.9,-7.29,75.0,0.0,2.76,GL,1611982312.0
amahai,50.1001,-91.917,-14.0,78.0,75.0,1.54,CA,1611982312.0
avera,-33.0153,27.9116,19.0,94.0,20.0,3.09,ZA,1611982313.0
broome,22.6783,-3.9836,17.24,29.0,0.0,4.42,ML,1611982313.0
grand river south east,26.1842,127.7558,19.0,34.0,40.0,4.63,JP,1611982313.0
sobolevo,-19.5667,18.1167,18.0,100.0,40.0,1.03,,1611982313.0
marcona,-3.6667,152.4333,28.77,78.0,75.0,5.84,PG,1611982314.0
sarkand,38.5167,-28.7,16.76,89.0,98.0,10.43,PT,1611982314.0
brae,4.4148,114.0089,31.0,70.0,40.0,4.12,MY,1611982314.0
cape town,-33.0117,17.9442,19.35,76.0,84.0,4.09,ZA,1611982315.0
okhotsk,55.7435,-97.8558,-12.0,85.0,90.0,2.06,CA,1611982316.0
maniitsoq,35.3667,132.7667,7.0,61.0,40.0,9.26,JP,1611982316.0
sioux lookout,37.1041,-113.5841,3.89,93.0,75.0,3.09,US,1611982316.0
east london,-17.7333,-149.15,28.0,65.0,75.0,2.57,PF,1611982316.0
taoudenni,64.75,177.4833,-28.89,69.0,0.0,3.0,RU,1611982317.0
nishihara,39.05,-27.9833,15.78,84.0,100.0,9.01,PT,1611982317.0
grootfontein,66.1451,-65.7125,-23.0,77.0,1.0,2.57,CA,1611982317.0
mithimna,19.7297,-155.09,22.0,83.0,90.0,3.09,US,1611982317.0
namatanai,18.7369,7.3853,12.63,34.0,0.0,1.18,NE,1611982317.0
ribeira grande,55.2261,63.2961,-9.17,96.0,100.0,5.16,RU,1611982318.0
miri,0.7821,11.549,20.39,99.0,81.0,1.0,GA,1611982318.0
saldanha,38.8876,-76.5119,-1.0,47.0,90.0,3.6,US,1611982318.0
thompson,-20.7333,139.5,39.0,22.0,75.0,4.63,AU,1611982318.0
izumo,-28.783,32.0377,23.84,84.0,74.0,1.38,ZA,1611982319.0
saint george,68.75,161.3,-37.81,83.0,5.0,0.79,RU,1611982319.0
tautira,-10.4544,161.9205,28.73,76.0,100.0,3.83,SB,1611982319.0
anadyr,29.9697,40.2064,4.0,75.0,0.0,3.6,SA,1611982300.0
lagoa,32.2163,-80.7526,7.78,93.0,1.0,2.01,US,1611982155.0
pangnirtung,66.5606,67.7975,-39.66,80.0,72.0,1.88,RU,1611982320.0
hilo,68.8193,-51.1922,-17.0,55.0,0.0,3.09,GL,1611982320.0
arlit,48.8499,-54.0148,-5.0,93.0,100.0,4.12,CA,1611982321.0
shumikha,45.6333,85.1833,-12.09,89.0,6.0,1.28,CN,1611982321.0
mitzic,14.5094,-92.1933,18.89,90.0,32.0,1.2,GT,1611982321.0
mayo,77.484,-69.3632,-25.29,63.0,0.0,2.38,GL,1611982321.0
mount isa,-3.8367,-62.0569,22.63,97.0,71.0,0.76,BR,1611982322.0
richards bay,50.0501,-110.6683,-12.22,78.0,90.0,2.57,CA,1611982322.0
cherskiy,-6.7221,146.9847,35.0,46.0,75.0,2.57,PG,1611982322.0
ijaki,43.7501,-81.7165,-3.0,63.0,100.0,4.63,CA,1611982322.0
kirakira,-20.55,46.8,19.23,83.0,57.0,1.2,MG,1611982323.0
sakakah,-17.1889,-41.6947,16.44,97.0,3.0,0.79,BR,1611982323.0
hilton head island,54.6961,20.2361,0.56,93.0,75.0,2.0,RU,1611982323.0
aksarka,5.9594,121.3903,27.9,73.0,59.0,2.77,PH,1611982323.0
taolanaro,18.4167,-64.6167,25.0,84.0,34.0,1.79,VG,1611982324.0
qasigiannguit,37.0286,-7.8411,15.0,100.0,90.0,6.17,PT,1611982324.0
hare bay,60.1432,-45.2371,0.46,89.0,99.0,3.95,GL,1611982324.0
baijiantan,21.3469,-158.0858,25.0,64.0,1.0,3.6,US,1611982324.0
ocos,49.2,119.7,-28.24,85.0,71.0,3.72,CN,1611982324.0
qaanaaq,-35.7167,150.1833,28.33,94.0,30.0,0.89,AU,1611982325.0
codajas,35.7333,140.8333,8.89,23.0,20.0,8.23,JP,1611982325.0
medicine hat,70.3705,31.1107,-3.12,97.0,100.0,9.73,NO,1611982325.0
lae,16.8634,-99.8901,24.75,72.0,62.0,1.48,MX,1611982222.0
goderich,-17.0667,15.7333,19.84,82.0,100.0,2.13,AO,1611982326.0
ambatofinandrahana,3.0707,172.7902,26.95,77.0,100.0,6.66,KI,1611982326.0
carai,28.6585,-17.9182,16.67,88.0,20.0,3.6,ES,1611982035.0
vzmorye,-17.4,15.8833,21.14,74.0,100.0,2.32,,1611982326.0
andalan,-13.1256,38.9997,22.86,94.0,100.0,1.85,MZ,1611982327.0
road town,7.1344,-3.2047,21.19,96.0,3.0,1.16,CI,1611982327.0
olhao,64.8945,-23.7142,-1.79,98.0,100.0,8.24,IS,1611982327.0
nanortalik,-7.3817,108.2082,29.37,60.0,100.0,0.54,ID,1611982328.0
makakilo city,59.5833,151.2833,-25.15,82.0,35.0,5.56,RU,1611982328.0
hailar,23.8342,120.927,23.33,49.0,20.0,4.12,TW,1611982030.0
batemans bay,42.6225,126.2614,-13.95,89.0,26.0,4.62,CN,1611982328.0
hasaki,62.7161,129.6658,-44.0,59.0,94.0,1.0,RU,1611982329.0
vardo,47.358,36.6491,2.02,98.0,100.0,1.91,UA,1611982329.0
acapulco,-21.3585,55.7679,31.0,51.0,0.0,1.03,RE,1611982330.0
ondjiva,-8.1181,111.8935,28.47,73.0,100.0,1.21,ID,1611982330.0
butaritari,48.4001,-89.3168,-15.0,78.0,75.0,1.03,CA,1611982330.0
los llanos de aridane,69.2167,-51.1,-17.0,55.0,0.0,3.09,GL,1611982330.0
oshikango,64.3833,-173.3,-22.16,82.0,2.0,2.23,RU,1611982331.0
kuche,63.4453,120.3167,-40.34,79.0,100.0,1.27,RU,1611982331.0
barawe,64.8989,45.7622,-9.78,96.0,100.0,3.99,RU,1611982331.0
montepuez,-38.5473,-58.7368,17.78,75.0,64.0,2.24,AR,1611982331.0
agnibilekrou,13.0349,-9.4895,19.15,22.0,0.0,1.86,ML,1611982331.0
olafsvik,24.3448,124.1572,19.0,45.0,20.0,5.14,JP,1611982332.0
kawalu,63.2842,118.3319,-40.24,78.0,100.0,1.33,RU,1611982332.0
ola,54.2331,-125.7533,-12.0,79.0,100.0,1.03,CA,1611982332.0
nizhneyansk,41.4853,12.6179,9.44,81.0,0.0,3.09,IT,1611982332.0
nantou,64.8621,11.2373,-3.42,97.0,95.0,2.6,NO,1611982333.0
huinan,50.9942,81.4661,-9.93,94.0,13.0,3.07,RU,1611982333.0
namtsy,62.5833,6.1333,1.0,80.0,75.0,3.6,NO,1611982333.0
belushya guba,56.8519,33.4487,-5.49,97.0,100.0,3.06,RU,1611982333.0
amderma,5.6592,-53.7767,24.95,88.0,73.0,5.54,GF,1611982334.0
kuybysheve,8.5711,81.2335,26.7,81.0,13.0,6.07,LK,1611982334.0
saint-philippe,21.2667,-97.45,18.96,87.0,96.0,2.14,MX,1611982334.0
boyolangu,55.1001,-105.2842,-13.0,85.0,73.0,1.03,CA,1611982335.0
thunder bay,-29.4667,149.85,34.0,24.0,25.0,4.63,AU,1611982224.0
ilulissat,54.8753,69.1628,-15.0,85.0,0.0,6.0,KZ,1611982335.0
provideniya,22.5667,59.5289,21.92,37.0,0.0,3.15,OM,1611982336.0
verkhnevilyuysk,-15.7667,128.7333,31.0,94.0,40.0,5.66,AU,1611982336.0
leshukonskoye,36.9559,36.2,3.89,85.0,2.0,5.81,TR,1611982045.0
necochea,60.9167,-46.05,5.0,33.0,75.0,15.43,GL,1611982337.0
kita,27.1333,81.9333,15.71,38.0,0.0,3.37,IN,1611982142.0
ishigaki,-38.0023,-57.5575,20.56,94.0,74.0,2.06,AR,1611982152.0
nyurba,42.5617,-2.356,8.0,100.0,75.0,5.66,ES,1611982338.0
burns lake,-42.4667,171.2,16.88,57.0,0.0,3.81,NZ,1611982151.0
anzio,49.7502,-77.6328,-20.0,84.0,90.0,4.63,CA,1611982049.0
rorvik,32.2994,-9.2372,13.64,89.0,25.0,4.17,MA,1611982338.0
gornyak,63.7256,8.834,1.0,86.0,40.0,4.63,NO,1611982338.0
roald,-32.1759,26.8244,17.78,78.0,22.0,0.92,ZA,1611982339.0
selizharovo,59.7035,30.7861,-1.0,93.0,90.0,3.0,RU,1611982339.0
mana,58.4497,92.1703,-30.78,82.0,90.0,1.99,RU,1611982339.0
trincomalee,65.75,150.85,-32.51,84.0,100.0,5.44,RU,1611982339.0
tamiahua,51.7102,143.2326,-16.73,90.0,100.0,6.38,RU,1611982340.0
la ronge,-16.7,-151.0167,27.24,66.0,100.0,1.6,PF,1611982340.0
moree,63.7553,121.6247,-40.27,78.0,100.0,1.24,RU,1611982340.0
petropavl,-6.2167,149.55,31.54,63.0,81.0,6.74,PG,1611982340.0
gzhatsk,20.931,-17.0347,19.56,48.0,44.0,7.39,MR,1611982340.0
sur,-24.6333,17.9667,22.84,21.0,17.0,2.7,,1611982341.0
kununurra,64.5667,143.2,-26.08,80.0,100.0,1.89,RU,1611982341.0
saryshagan,25.9873,-80.2323,17.0,77.0,1.0,3.09,US,1611982326.0
tumannyy,58.6147,5.6457,-1.0,93.0,90.0,2.57,NO,1611982341.0
erzin,51.226,-58.6502,-10.68,91.0,66.0,5.77,CA,1611982342.0
narsaq,60.8156,-115.7999,-30.0,76.0,36.0,1.2,CA,1611982342.0
gonda,-8.1614,-70.7656,22.13,97.0,92.0,0.82,BR,1611982329.0
mar del plata,54.4815,53.471,-4.27,98.0,92.0,2.4,RU,1611982231.0
dzhusaly,-35.1,173.7833,21.11,56.0,48.0,4.47,NZ,1611982343.0
aras,67.45,153.6833,-36.89,83.0,99.0,1.47,RU,1611982343.0
greymouth,-8.9266,125.4092,20.32,89.0,100.0,2.63,TL,1611982343.0
matagami,52.2667,79.1667,-9.13,95.0,67.0,1.43,RU,1611982343.0
asfi,36.2133,58.7958,10.43,41.0,34.0,2.26,IR,1611982344.0
sistranda,35.1333,140.3,9.0,29.0,20.0,5.14,JP,1611982344.0
whittlesea,-34.6667,-54.9167,21.0,83.0,0.0,1.54,UY,1611982344.0
nikolskoye,63.7506,-68.5145,-23.89,70.0,1.0,13.38,CA,1611982345.0
yeniseysk,10.5669,72.642,27.1,71.0,14.0,4.14,IN,1611982345.0
zyryanka,12.3536,-4.7761,21.12,21.0,21.0,4.44,ML,1611982345.0
katangli,-34.0033,24.7314,17.23,65.0,0.0,2.36,ZA,1611982346.0
fare,-37.8333,140.7667,19.0,68.0,90.0,7.2,AU,1611982097.0
vilyuysk,-31.4333,152.9167,28.33,64.0,81.0,0.89,AU,1611982346.0
kandrian,57.79,-152.4072,2.0,55.0,1.0,3.6,US,1611982346.0
nouadhibou,36.855,28.2742,13.33,76.0,75.0,2.57,TR,1611982172.0
mariental,34.4133,-119.861,8.0,93.0,20.0,1.45,US,1611982272.0
ust-nera,-35.1667,173.1667,19.44,64.0,58.0,2.44,NZ,1611982347.0
miramar,-6.2167,155.6333,29.1,74.0,45.0,6.41,PG,1611982347.0
varhaug,-9.1061,124.8925,25.85,85.0,100.0,4.54,ID,1611982348.0
saint-augustin,63.8424,-22.4338,-1.0,93.0,75.0,2.57,IS,1611982348.0
hay river,56.8944,74.371,-19.86,89.0,100.0,3.7,RU,1611982348.0
tarauaca,56.2624,34.3282,-5.15,98.0,100.0,4.14,RU,1611982348.0
oktyabrskiy,-6.8844,112.2051,26.68,84.0,100.0,9.25,ID,1611982349.0
kaeo,21.5028,-158.0236,25.0,88.0,90.0,4.82,US,1611982349.0
srednekolymsk,-20.4081,57.7,27.0,83.0,75.0,3.6,MU,1611982349.0
airai,-38.6044,145.5913,22.22,76.0,42.0,6.52,AU,1611982350.0
klyuchi,-5.3964,-40.3086,24.03,76.0,100.0,2.45,BR,1611982350.0
bolungarvik,62.1444,117.6319,-40.29,77.0,100.0,1.45,RU,1611982350.0
neyshabur,48.9329,-125.5528,5.56,90.0,100.0,2.24,CA,1611982314.0
katsuura,-8.6011,-38.5686,23.6,75.0,99.0,4.03,BR,1611982315.0
maldonado,47.8123,38.2882,1.9,99.0,100.0,4.9,UA,1611982351.0
iqaluit,17.0151,54.0924,21.0,64.0,75.0,3.09,OM,1611982351.0
kavaratti,0.9472,33.1197,20.99,76.0,78.0,0.79,UG,1611982351.0
yorosso,41.2835,-70.0995,-5.0,79.0,90.0,9.26,US,1611982352.0
tsihombe,-17.8786,36.8883,27.0,78.0,40.0,1.54,MZ,1611982352.0
monatele,53.1229,34.9852,-4.0,86.0,90.0,5.0,RU,1611982352.0
kruisfontein,68.0546,166.4372,-31.85,80.0,0.0,2.03,RU,1611982352.0
mount gambier,14.454,120.5914,29.0,51.0,75.0,8.23,PH,1611982352.0
port macquarie,47.6666,-52.7314,-2.22,93.0,90.0,10.29,CA,1611982353.0
kodiak,22.8909,-109.9124,20.0,88.0,15.0,0.45,MX,1611982197.0
marmaris,47.5639,46.7218,-1.11,99.0,97.0,3.36,RU,1611982353.0
isla vista,-20.3428,57.7575,28.33,83.0,75.0,3.6,MU,1611982353.0
ahipara,-28.7667,114.6,39.0,15.0,0.0,9.26,AU,1611982354.0
kieta,47.6936,-114.1632,0.0,51.0,64.0,1.33,US,1611982354.0
illoqqortoormiut,-0.6,73.0833,27.81,76.0,65.0,6.06,MV,1611982354.0
atambua,-13.7,-76.2167,22.0,73.0,0.0,5.14,PE,1611982355.0
grindavik,15.2,-85.75,21.0,78.0,20.0,0.72,HN,1611982355.0
tara,29.9576,122.298,9.53,67.0,0.0,5.31,CN,1611982355.0
rzhev,-23.7,133.8833,36.0,32.0,79.0,6.17,AU,1611982341.0
labuhan,35.6003,103.2064,-0.88,72.0,100.0,1.81,CN,1611982356.0
barentsburg,16.6362,1.637,16.61,28.0,61.0,6.58,ML,1611982356.0
wahiawa,45.5234,-122.6762,6.11,89.0,99.0,1.34,US,1611982298.0
mahebourg,-33.918,25.5701,14.0,88.0,0.0,1.03,ZA,1611982357.0
wonthaggi,3.8146,23.6866,19.89,82.0,100.0,0.91,CD,1611982357.0
independencia,71.9167,114.0833,-38.62,75.0,0.0,1.73,RU,1611982357.0
suntar,33.7333,135.9833,8.0,39.0,20.0,8.23,JP,1611982358.0
ucluelet,69.3833,178.4167,-30.27,85.0,100.0,3.27,RU,1611982358.0
floresta,-12.486,130.9833,27.0,89.0,75.0,5.66,AU,1611982358.0
kuteynykove,-27.6258,-54.3078,21.11,91.0,11.0,0.89,BR,1611982358.0
salalah,41.3888,2.159,13.33,93.0,0.0,3.6,ES,1611982335.0
kamuli,34.388,67.0233,-6.04,82.0,0.0,0.98,AF,1611982359.0
nantucket,3.1655,-52.3158,21.92,98.0,91.0,0.84,GF,1611982359.0
quelimane,50.2334,-63.5986,-14.0,66.0,1.0,3.6,CA,1611982359.0
karachev,50.6789,156.125,-4.13,92.0,100.0,9.65,RU,1611982359.0
bilibino,41.1702,75.8106,-10.97,71.0,0.0,0.69,KG,1611982360.0
cabcaben,-19.0595,-169.9187,26.0,94.0,100.0,3.09,NU,1611982208.0
torbay,21.4447,-157.8378,25.0,73.0,75.0,5.66,US,1611982360.0
cabo san lucas,-20.5167,57.5167,27.0,83.0,75.0,3.6,MU,1611982360.0
tsagan aman,51.2029,29.0823,-6.21,97.0,78.0,2.16,UA,1611982361.0
bambous virieux,-18.65,-173.9833,27.0,89.0,75.0,5.14,TO,1611982361.0
geraldton,4.8699,-2.2405,25.47,83.0,1.0,3.02,GH,1611982361.0
polson,8.1222,-63.5497,24.21,73.0,8.0,5.15,VE,1611982361.0
hithadhoo,11.6667,92.75,28.83,66.0,17.0,5.01,IN,1611982362.0
saleaula,51.0333,-4.2167,10.0,95.0,100.0,0.89,GB,1611982362.0
pisco,43.213,-8.691,12.0,71.0,75.0,6.17,ES,1611982362.0
lolua,66.0449,-17.3389,-3.0,86.0,90.0,7.2,IS,1611982362.0
san esteban,-8.1842,-76.5125,21.22,88.0,100.0,0.27,PE,1611982363.0
shenjiamen,-29.9533,-71.3436,17.0,82.0,0.0,1.54,CL,1611982363.0
alice springs,40.4272,71.7189,3.0,44.0,75.0,1.14,UZ,1611982363.0
linxia,64.571,30.5767,-9.55,97.0,100.0,4.23,RU,1611982363.0
gao,52.9999,-122.5029,-6.0,79.0,90.0,3.6,CA,1611982363.0
balimo,70.8578,29.0864,-3.17,96.0,100.0,9.71,NO,1611982364.0
portland,-0.9,-89.6,24.94,83.0,31.0,4.29,EC,1611982364.0
port elizabeth,54.7169,-113.2854,-20.0,84.0,0.0,1.03,CA,1611982364.0
bondo,55.4334,-116.4858,-14.0,78.0,0.0,2.06,CA,1611982206.0
tabiauea,70.2396,22.3479,-6.0,67.0,90.0,3.09,NO,1611982365.0
saskylakh,41.2547,67.9692,8.03,52.0,100.0,7.69,KZ,1611982365.0
shingu,50.2845,29.5263,-6.67,92.0,75.0,2.0,UA,1611982365.0
leningradskiy,45.0039,43.7772,1.06,89.0,66.0,1.57,RU,1611982365.0
palmerston,39.6412,-85.1411,-3.33,72.0,30.0,2.81,US,1611982366.0
horizontina,40.8021,-124.1637,8.89,74.0,100.0,4.45,US,1611982366.0
barcelona,40.8106,111.6522,-4.0,46.0,0.0,2.0,CN,1611982366.0
panjab,-25.2406,130.9889,34.0,31.0,98.0,9.26,AU,1611982366.0
camopi,29.1966,-96.2697,15.0,87.0,40.0,2.57,US,1611982367.0
havre-saint-pierre,66.9395,-53.6735,-13.68,88.0,3.0,4.59,GL,1611982367.0
severo-kurilsk,-38.3833,142.4833,18.33,81.0,100.0,5.67,AU,1611982114.0
at-bashi,-0.9516,122.7875,30.74,53.0,98.0,0.97,ID,1611982367.0
alofi,54.7183,135.315,-23.48,88.0,100.0,5.64,RU,1611982367.0
ahuimanu,-3.8004,102.2655,29.75,62.0,98.0,3.13,ID,1611982368.0
souillac,50.2503,58.4347,-10.21,97.0,97.0,2.86,KZ,1611982368.0
doctor pedro p. pena,-33.8667,121.9,26.0,34.0,0.0,5.14,AU,1611982368.0
narodychi,-14.25,129.55,26.63,86.0,100.0,4.52,AU,1611982369.0
neiafu,42.8675,130.3581,-7.56,82.0,53.0,4.66,CN,1611982369.0
axim,64.8569,-147.8028,-17.22,77.0,40.0,1.54,US,1611982369.0
ciudad bolivar,53.0452,158.6483,-4.0,50.0,20.0,7.0,RU,1611982369.0
port blair,18.3851,42.4509,11.0,31.0,0.0,1.33,SA,1611982369.0
northam,5.6667,73.0,27.45,69.0,1.0,5.05,MV,1611982370.0
carballo,13.6017,26.6876,14.49,33.0,10.0,7.31,SD,1611982370.0
husavik,5.3998,26.4869,20.43,23.0,71.0,2.4,CF,1611982370.0
tocache,34.4506,40.9171,7.28,70.0,1.0,4.59,SY,1611982370.0
coquimbo,41.8666,-103.6672,1.11,69.0,1.0,1.58,US,1611982094.0
komsomolskiy,-7.95,110.2833,29.19,68.0,100.0,3.88,ID,1611982371.0
kostomuksha,40.5982,-124.1573,8.33,87.0,90.0,6.17,US,1611982371.0
quesnel,32.4832,72.9097,16.68,28.0,0.0,1.22,PK,1611982371.0
berlevag,-13.275,-50.1628,22.35,89.0,100.0,1.22,BR,1611982371.0
puerto baquerizo moreno,37.8406,-3.3526,12.78,97.0,62.0,3.59,ES,1611982372.0
athabasca,-0.8833,131.25,28.64,71.0,71.0,2.86,ID,1611982372.0
high prairie,60.7167,-46.0333,5.0,33.0,75.0,15.43,GL,1611982372.0
mechoacan,51.6782,33.9162,-5.52,97.0,97.0,5.44,UA,1611982372.0
oksfjord,63.4427,-20.2734,1.74,84.0,100.0,4.06,IS,1611982373.0
chardara,-30.3167,149.7833,34.0,22.0,40.0,3.09,AU,1611982373.0
brusyliv,-19.55,169.2667,27.43,70.0,19.0,8.1,VU,1611982373.0
sotnikovskoye,63.9167,24.9667,-11.11,90.0,100.0,3.43,FI,1611982373.0
connersville,-5.6667,132.75,28.62,77.0,48.0,6.59,ID,1611982374.0
eureka,53.9631,58.3981,-13.0,85.0,75.0,2.0,RU,1611982374.0
hohhot,23.2,-106.2333,20.0,68.0,20.0,1.15,MX,1611982374.0
yulara,38.421,-121.4238,7.0,87.0,1.0,1.54,US,1611982374.0
el campo,4.1363,96.1285,29.7,61.0,89.0,2.08,ID,1611982375.0
sisimiut,9.4942,50.8122,23.91,69.0,24.0,6.07,SO,1611982375.0
warrnambool,-11.6609,27.4794,18.0,100.0,0.0,0.4,CD,1611982375.0
luwuk,1.6744,31.715,22.31,47.0,52.0,0.94,UG,1611982375.0
chumikan,-34.084,18.8211,19.44,94.0,75.0,1.54,ZA,1611982375.0
bengkulu,59.5994,54.3125,-8.5,96.0,100.0,4.95,RU,1611982376.0
kalomo,68.0531,39.5131,-12.39,94.0,100.0,7.7,RU,1611982376.0
khromtau,51.6514,117.5599,-24.78,81.0,11.0,0.2,RU,1611982376.0
esperance,11.6876,-84.4562,20.4,96.0,44.0,4.45,NI,1611982376.0
port keats,50.0833,132.1667,-22.13,79.0,37.0,1.39,RU,1611982377.0
hunchun,-7.0167,113.8667,25.95,86.0,100.0,9.49,ID,1611982377.0
college,-34.6177,-68.3301,15.39,86.0,100.0,6.3,AR,1611982377.0
petropavlovsk-kamchatskiy,45.2117,36.7161,8.0,61.0,100.0,9.0,RU,1611982377.0
faya,24.6877,46.7219,15.0,31.0,51.0,3.09,SA,1611982377.0
ugoofaaru,1.55,110.3333,26.0,94.0,40.0,1.03,MY,1611982220.0
umm kaddadah,47.5667,9.1,6.0,81.0,90.0,4.63,CH,1611982378.0
obo,2.9167,73.5667,27.23,78.0,7.0,6.78,MV,1611982378.0
abu kamal,-23.1333,150.7333,32.0,45.0,40.0,5.66,AU,1611982379.0
scottsbluff,35.5,134.2333,5.0,56.0,75.0,7.72,JP,1611982379.0
bambanglipuro,47.4667,84.8667,-14.73,92.0,85.0,1.31,KZ,1611982379.0
fortuna,63.0128,112.4714,-39.65,81.0,81.0,1.74,RU,1611982379.0
bhera,-8.8978,-35.1478,25.32,82.0,100.0,4.7,BR,1611982329.0
sao miguel do araguaia,21.4612,-71.1419,22.23,71.0,7.0,8.71,TC,1611982380.0
jodar,70.9821,25.9704,-3.56,93.0,100.0,7.5,NO,1611982380.0
sorong,62.0788,150.477,-31.29,82.0,100.0,1.73,RU,1611982380.0
qaqortoq,-8.145,159.5921,29.15,76.0,99.0,5.22,SB,1611982380.0
hlukhiv,6.3005,-10.7969,25.0,94.0,75.0,3.1,LR,1611982381.0
vestmannaeyjar,5.9749,116.0724,30.0,74.0,20.0,2.57,MY,1611982381.0
narrabri,66.53,66.6019,-39.17,80.0,86.0,1.29,RU,1611982381.0
isangel,-20.7833,117.1333,34.72,42.0,34.0,5.52,AU,1611982381.0
nivala,70.6333,147.9167,-33.63,85.0,100.0,3.86,RU,1611982382.0
tual,4.375,-7.7169,25.68,86.0,19.0,2.65,LR,1611982382.0
beloretsk,42.0372,119.2889,-10.43,88.0,11.0,1.99,CN,1611982382.0
villa union,17.4333,-95.0333,19.32,96.0,95.0,3.54,MX,1611982382.0
laguna,68.7098,-52.8699,-18.16,89.0,2.0,2.12,GL,1611982383.0
meulaboh,10.9,77.0667,26.0,65.0,20.0,2.06,IN,1611982383.0
bandarbeyla,39.1672,8.5222,13.0,88.0,20.0,2.06,IT,1611982383.0
lubumbashi,20.15,92.9,25.15,28.0,48.0,2.06,MM,1611982383.0
masindi,51.064,-0.3272,7.22,93.0,75.0,2.57,GB,1611982383.0
somerset west,72.7868,-56.1549,-22.72,84.0,0.0,4.9,GL,1611982384.0
kochevo,20.5022,-10.0711,15.64,30.0,8.0,4.35,MR,1611982384.0
ostrovnoy,37.34,111.2052,-0.72,73.0,89.0,4.27,CN,1611982384.0
shelopugino,52.5178,99.825,-11.79,87.0,97.0,3.64,RU,1611982384.0
nueva guinea,43.5836,18.79,3.95,81.0,100.0,0.73,BA,1611982385.0
tyrma,70.4692,-68.5914,-29.0,83.0,1.0,2.57,CA,1611982385.0
sumenep,54.0831,-0.1919,2.22,86.0,100.0,4.02,GB,1611982385.0
san rafael,6.7085,121.9711,32.0,55.0,40.0,4.63,PH,1611982385.0
taman,55.219,75.9828,-12.8,96.0,100.0,4.09,RU,1611982386.0
riyadh,37.5133,34.0467,-0.27,80.0,52.0,1.63,TR,1611982386.0
kuching,34.8791,-76.9013,-2.0,64.0,1.0,2.06,US,1611982386.0
halalo,35.2597,-118.9143,9.44,66.0,1.0,1.54,US,1611982386.0
weinfelden,25.0213,37.2685,17.33,48.0,0.0,5.43,SA,1611982386.0
muli,41.1231,80.2644,-0.58,72.0,0.0,1.34,CN,1611982387.0
yeppoon,-2.0226,147.2712,28.56,81.0,100.0,4.59,PG,1611982387.0
tottori,-10.0681,-78.1522,21.55,75.0,97.0,2.99,PE,1611982388.0
zaysan,-34.7333,135.8667,18.99,61.0,17.0,7.38,AU,1611982388.0
chernyshevskiy,-41.8697,-73.8203,10.56,81.0,0.0,4.12,CL,1611982388.0
sao jose da coroa grande,48.4333,2.15,7.78,99.0,100.0,3.58,FR,1611982224.0
cockburn town,32.6333,-16.85,15.0,82.0,20.0,2.57,PT,1611982389.0
honningsvag,15.85,-97.0667,26.0,83.0,40.0,3.09,MX,1611982389.0
sinegorye,13.2167,-59.5167,26.0,69.0,40.0,6.69,BB,1611982389.0
buala,14.8961,-24.4956,23.45,56.0,98.0,4.24,CV,1611982389.0
monrovia,36.6177,-121.9166,8.0,87.0,1.0,1.54,US,1611982172.0
kota kinabalu,39.9317,119.5883,-2.92,77.0,0.0,6.36,CN,1611982390.0
salekhard,21.4267,39.8261,18.21,40.0,0.0,4.46,SA,1611982137.0
roebourne,-20.0064,57.6608,28.33,77.0,1.0,1.79,MU,1611982390.0
chokurdakh,-12.95,-76.3833,22.57,65.0,96.0,1.18,PE,1611982391.0
harper,40.3744,47.1267,5.0,100.0,90.0,1.54,AZ,1611982391.0
pingzhuang,-3.945,122.4989,29.89,65.0,100.0,2.43,ID,1611982391.0
jesus carranza,-12.3833,16.9333,14.06,88.0,87.0,1.33,AO,1611982391.0
aasiaat,60.7333,77.5889,-41.0,66.0,90.0,1.0,RU,1611982392.0
chettipalaiyam,12.1791,125.5072,26.55,78.0,100.0,10.77,PH,1611982392.0
carbonia,56.1725,107.4458,-30.58,83.0,100.0,1.3,RU,1611982392.0
akyab,-45.5752,-72.0662,6.0,87.0,0.0,1.15,CL,1611982392.0
horsham,48.5108,3.7263,8.0,93.0,90.0,4.12,FR,1611982393.0
upernavik,36.5281,37.9549,-1.0,80.0,0.0,1.72,SY,1611982393.0
adrar,50.4111,80.2275,-14.0,78.0,0.0,3.0,KZ,1611982389.0
ningxiang,7.4167,81.8167,27.5,78.0,10.0,4.72,LK,1611982394.0
orlik,18.217,-63.0578,25.0,83.0,75.0,2.06,AI,1611982394.0
ustikolina,43.2686,-7.5406,9.44,85.0,65.0,7.15,ES,1611982394.0
clyde river,71.9667,102.5,-41.69,75.0,9.0,1.39,RU,1611982394.0
bridlington,46.4333,26.4,5.0,58.0,100.0,2.42,RO,1611982394.0
isabela,35.3089,113.8672,13.14,31.0,100.0,0.43,CN,1611982395.0
tatarsk,58.9303,46.7586,-5.14,98.0,100.0,4.44,RU,1611982395.0
eregli,-1.8764,15.8644,22.58,90.0,100.0,1.55,CG,1611982395.0
havelock,64.5011,-165.4064,-20.0,59.0,1.0,8.23,US,1611982396.0
lamont,35.5531,139.3544,8.33,21.0,20.0,5.14,JP,1611982396.0
umm lajj,-6.3264,108.32,27.13,81.0,100.0,8.64,ID,1611982396.0
aksu,21.5453,-77.2644,19.0,77.0,75.0,3.6,CU,1611982396.0
lorengau,-19.8,-174.35,28.0,78.0,90.0,3.09,TO,1611982397.0
huarmey,39.4667,141.95,0.33,82.0,2.0,11.16,JP,1611982397.0
port lincoln,43.3128,10.524,13.89,62.0,50.0,6.62,IT,1611982397.0
ancud,50.0308,-100.2403,-7.0,93.0,90.0,4.63,CA,1611982397.0
vaitupu,-16.9167,145.7667,31.11,58.0,98.0,8.23,AU,1611982279.0
etampes,59.5667,150.8,-25.18,80.0,35.0,4.54,RU,1611982398.0
canico,45.0333,-93.0835,-3.89,58.0,90.0,6.17,US,1611982398.0
puerto escondido,42.0678,48.2899,5.51,89.0,100.0,1.96,RU,1611982398.0
bathsheba,-21.3667,55.6167,31.0,51.0,0.0,1.03,RE,1611982399.0
sao filipe,13.5928,-89.8275,25.79,50.0,22.0,3.47,SV,1611982399.0
pacific grove,15.1333,-23.2167,23.0,53.0,0.0,7.72,CV,1611982399.0
qinhuangdao,64.7507,20.9528,-14.0,92.0,90.0,3.09,SE,1611982399.0
mecca,-22.9575,14.5053,19.44,82.0,10.0,3.6,,1611982399.0
nguiu,46.9809,-123.8893,5.0,81.0,90.0,5.66,US,1611982400.0
grand gaube,34.8014,-106.5436,7.0,45.0,75.0,5.66,US,1611982400.0
quilmana,45.7625,106.2708,-5.3,85.0,42.0,8.76,MN,1611982400.0
barda,66.8333,70.8333,-38.82,81.0,40.0,2.48,RU,1611982400.0
kendari,22.6163,120.3133,23.0,53.0,40.0,4.63,TW,1611982401.0
kuito,39.1834,-84.5333,-3.33,86.0,1.0,1.76,US,1611982117.0
strezhevoy,57.0531,-135.33,4.0,52.0,90.0,7.2,US,1611982401.0
san policarpo,-3.4833,23.4333,20.04,93.0,90.0,0.89,CD,1611982401.0
magistralnyy,46.0334,-79.3496,-18.0,85.0,75.0,1.04,CA,1611982401.0
coihaique,-43.249,-65.3051,12.83,56.0,0.0,1.6,AR,1611982402.0
gurgan,-3.6819,13.3499,19.76,100.0,100.0,0.44,CG,1611982402.0
romilly-sur-seine,-0.6136,-47.3561,26.74,81.0,88.0,5.79,BR,1611982331.0
manbij,18.6853,12.9164,13.7,32.0,34.0,2.66,NE,1611982402.0
semey,-15.5961,-56.0967,24.0,88.0,75.0,4.63,BR,1611982403.0
kalmunai,-21.35,165.15,25.11,78.0,82.0,4.38,NC,1611982403.0
the valley,54.1742,103.0304,-15.92,92.0,100.0,0.99,RU,1611982403.0
bereda,-25.1667,45.05,30.35,54.0,0.0,3.34,MG,1611982403.0
khatanga,30.15,62.6,16.49,24.0,33.0,1.35,AF,1611982404.0
asau,7.6244,-11.8332,23.3,94.0,3.0,0.91,SL,1611982404.0
xinxiang,0.5412,123.0595,28.53,78.0,84.0,1.81,ID,1611982404.0
vokhma,64.4803,76.6897,-40.22,81.0,16.0,1.04,RU,1611982404.0
daxian,43.3218,129.7634,-9.6,83.0,65.0,4.97,CN,1611982404.0
gamboma,66.845,32.3622,-13.84,95.0,100.0,4.12,RU,1611982405.0
nome,28.8947,64.4101,16.74,20.0,1.0,1.82,PK,1611982405.0
sagamihara,-0.4139,-65.0192,23.22,76.0,80.0,0.98,BR,1611982405.0
indramayu,-25.4,-70.4833,17.29,75.0,5.0,1.51,CL,1611982405.0
nuevitas,41.1875,61.4036,7.16,53.0,100.0,2.39,TM,1611982406.0
pangai,23.1935,116.6142,18.0,45.0,0.0,4.0,CN,1611982406.0
andevoranto,47.5999,-53.2648,-3.33,88.0,100.0,3.58,CA,1611982406.0
yamada,59.6289,112.7406,-36.62,78.0,52.0,2.02,RU,1611982406.0
cecina,64.2539,-15.2082,0.82,78.0,72.0,2.77,IS,1611982407.0
rivers,49.2833,120.7333,-28.76,84.0,100.0,2.4,CN,1611982407.0
cairns,40.7286,124.7847,-7.38,86.0,40.0,3.41,CN,1611982407.0
magadan,5.5577,95.3222,29.06,70.0,99.0,7.32,ID,1611982407.0
ramsey,-24.0,21.75,22.11,64.0,100.0,3.38,BW,1611982408.0
derbent,-5.041,18.8162,21.55,95.0,100.0,1.22,CD,1611982408.0
saint-joseph,5.3505,48.5268,25.29,70.0,51.0,8.12,SO,1611982408.0
acajutla,13.1667,44.5833,19.6,79.0,41.0,2.29,YE,1611982408.0
vila do maio,29.9737,32.5263,8.59,68.0,0.0,1.17,EG,1611982408.0
skelleftea,-28.65,153.6167,29.0,69.0,40.0,5.66,AU,1611982409.0
walvis bay,41.7911,-107.2387,-1.0,64.0,75.0,3.09,US,1611982409.0
hoquiam,33.2833,134.15,9.0,37.0,20.0,3.6,JP,1611982409.0
meadow lake,59.3556,5.2242,0.0,93.0,75.0,3.6,NO,1611982409.0
mandalgovi,-8.4667,140.3333,28.89,77.0,100.0,7.63,ID,1611982410.0
yar-sale,-34.5833,150.8552,28.89,70.0,56.0,2.24,AU,1611982410.0
kaohsiung,57.6731,66.1725,-12.55,95.0,91.0,4.05,RU,1611982410.0
hamilton,48.85,2.4333,8.33,100.0,75.0,4.12,FR,1611982411.0
sitka,64.8378,-147.7164,-17.22,77.0,1.0,1.23,US,1611982202.0
lodja,8.8167,40.5167,16.72,30.0,32.0,1.15,ET,1611982411.0
powassan,51.1945,42.2457,1.11,94.0,100.0,7.43,RU,1611982411.0
trelew,41.9563,42.9566,6.0,100.0,90.0,1.03,GE,1611982411.0
sibiti,-0.6876,100.9537,23.91,86.0,100.0,0.67,ID,1611982412.0
salinopolis,-45.4167,167.7167,19.46,47.0,0.0,1.54,NZ,1611982412.0
bilma,5.3833,-52.95,25.08,88.0,93.0,5.7,GF,1611982412.0
cuiaba,54.0381,21.7644,-4.23,98.0,100.0,3.3,PL,1611982412.0
poya,-21.3393,55.4781,31.0,51.0,0.0,1.03,RE,1611982413.0
ust-uda,25.5198,90.2201,22.21,30.0,0.0,1.83,IN,1611982413.0
beloha,25.35,-102.8,22.0,35.0,40.0,1.13,MX,1611982413.0
rudbar,-11.7461,-44.91,22.52,65.0,49.0,1.18,BR,1611982413.0
mattru,25.3,91.7,18.0,42.0,20.0,1.03,IN,1611982413.0
gorontalo,26.5412,-77.0636,17.99,65.0,41.0,5.59,BS,1611982414.0
purpe,10.9995,122.6711,24.71,86.0,100.0,7.12,PH,1611982414.0
wangqing,27.7167,85.3167,13.0,54.0,20.0,1.54,NP,1611982414.0
zelenoborskiy,8.6,39.1167,15.23,49.0,21.0,2.9,ET,1611982415.0
dalbandin,-24.7,44.75,29.79,55.0,5.0,4.36,MG,1611982415.0
santa isabel do rio negro,31.2156,29.9553,12.35,62.0,0.0,6.1,EG,1611982415.0
taltal,36.3,139.8,10.0,21.0,20.0,8.23,JP,1611982415.0
gazojak,28.3667,129.4833,15.0,47.0,75.0,5.66,JP,1611982416.0
haimen,-40.8135,-62.9967,11.67,78.0,0.0,3.7,AR,1611982416.0
bay roberts,-12.9274,34.2961,23.53,85.0,100.0,2.39,MW,1611982416.0
peleduy,39.447,-86.1758,-2.78,83.0,37.0,3.36,US,1611982416.0
hofn,38.6979,-9.4215,14.44,100.0,85.0,7.21,PT,1611982416.0
yakeshi,-14.9003,50.2788,27.04,76.0,9.0,1.12,MG,1611982417.0
kuandian,46.6806,113.2792,-15.76,93.0,76.0,4.55,MN,1611982417.0
banda aceh,-44.7,169.15,20.17,42.0,1.0,1.4,NZ,1611982417.0
hukuntsi,53.9166,-122.753,-9.44,92.0,1.0,1.03,CA,1611982294.0
kikwit,56.9514,90.6661,-27.05,86.0,100.0,3.57,RU,1611982418.0
hobyo,34.6391,-120.4579,7.0,93.0,1.0,0.93,US,1611982418.0
lahij,48.3833,-4.6167,11.0,93.0,90.0,9.26,FR,1611982418.0
suez,35.1478,-114.5683,10.0,71.0,1.0,1.62,US,1611982418.0
byron bay,47.9417,-97.4337,-5.0,100.0,90.0,6.17,US,1611982305.0
rawlins,36.1867,-94.1288,8.89,53.0,1.0,6.17,US,1611982419.0
muroto,39.5108,54.3671,11.34,45.0,100.0,0.74,TM,1611982419.0
visnes,8.4109,20.6473,23.28,19.0,83.0,5.46,CF,1611982419.0
merauke,51.6828,102.1408,-7.6,84.0,93.0,0.96,RU,1611982420.0
ust-kamchatsk,12.5847,-81.7006,27.0,74.0,20.0,4.63,CO,1611982346.0
flinders,35.0434,46.3565,0.47,94.0,77.0,2.21,IR,1611982420.0
nizhnyaya tavda,-5.5569,-80.8222,24.52,63.0,63.0,5.47,PE,1611982420.0
vincennes,27.9769,-114.0611,15.13,70.0,4.0,6.55,MX,1611982279.0
fairbanks,58.9564,126.2925,-33.45,79.0,100.0,0.39,RU,1611982421.0
gelemso,57.8,158.6667,-20.01,91.0,100.0,4.02,RU,1611982421.0
povorino,46.5878,7.6475,5.0,90.0,100.0,0.45,CH,1611982422.0
khani,4.7263,-52.3274,24.0,100.0,75.0,1.03,GF,1611982422.0
sijunjung,50.6996,-127.4199,6.0,87.0,90.0,8.75,CA,1611982422.0
te anau,7.7669,-72.225,17.5,74.0,43.0,0.77,VE,1611982258.0
sinnamary,3.001,99.8164,29.46,64.0,98.0,1.39,ID,1611982423.0
gizycko,-30.1811,-50.2056,23.81,89.0,11.0,2.23,BR,1611982423.0
saint-pierre,63.05,179.3167,-28.41,83.0,0.0,3.73,RU,1611982423.0
tura,-42.5167,172.8167,17.66,44.0,0.0,2.76,NZ,1611982424.0
viesca,12.1646,-61.7296,25.0,83.0,20.0,6.17,GD,1611982424.0
riachao das neves,60.05,69.9,-26.69,85.0,100.0,4.33,RU,1611982424.0
cherrapunji,58.0006,102.6619,-31.96,80.0,74.0,3.23,RU,1611982424.0
marsh harbour,48.2325,-101.2963,-6.0,93.0,90.0,5.14,US,1611982397.0
dingle,37.4833,141.0,4.44,41.0,13.0,9.4,JP,1611982425.0
kathmandu,27.3125,105.2942,3.98,84.0,100.0,1.21,CN,1611982425.0
bargal,-10.6167,150.6667,28.95,74.0,100.0,2.92,PG,1611982425.0
mojo,2.0167,112.9333,29.89,68.0,100.0,1.03,MY,1611982425.0
ampanihy,27.2025,60.6848,13.0,13.0,0.0,3.09,IR,1611982426.0
alexandria,-9.0763,143.2092,26.52,86.0,99.0,5.34,PG,1611982426.0
oyama,-32.035,-52.0986,23.33,94.0,88.0,2.73,BR,1611982408.0
naze,47.4157,-120.2931,2.22,89.0,100.0,0.86,US,1611982270.0
viedma,8.4054,48.4845,18.52,77.0,41.0,4.88,SO,1611982427.0
nkhotakota,65.5833,-171.0,-28.2,81.0,0.0,4.22,RU,1611982427.0
bud,53.6039,91.3903,-4.0,58.0,0.0,4.0,RU,1611982427.0
cascais,68.005,35.0117,-15.31,93.0,100.0,3.63,RU,1611982428.0
antalaha,46.875,-96.9004,-3.0,80.0,90.0,5.14,US,1611982257.0
bo,29.5958,-90.7195,9.44,93.0,1.0,1.54,US,1611982145.0
baruun-urt,68.2191,-135.0107,-34.0,75.0,87.0,0.51,CA,1611982428.0
wanaka,27.75,-107.6333,5.9,88.0,38.0,4.68,MX,1611982429.0
prince george,1.0,-52.0,21.93,98.0,85.0,0.88,BR,1611982429.0
novobirilyussy,62.0025,132.4325,-41.47,75.0,60.0,0.69,RU,1611982429.0
lompoc,59.7,150.1667,-25.02,78.0,42.0,5.95,RU,1611982429.0
plouzane,62.0989,126.6992,-39.85,77.0,100.0,0.3,RU,1611982430.0
bullhead city,1.6833,101.45,31.7,50.0,47.0,2.58,ID,1611982430.0
grand forks,9.9347,106.3453,31.42,43.0,45.0,0.48,VN,1611982430.0
springdale,49.8668,-111.3684,-13.0,85.0,0.0,1.54,CA,1611982430.0
balkanabat,7.0419,134.2556,29.0,61.0,90.0,5.14,PW,1611982431.0
ndele,36.5449,61.1577,14.0,23.0,40.0,5.14,IR,1611982431.0
kyren,50.3643,108.7512,-11.22,90.0,100.0,1.53,RU,1611982431.0
san andres,51.55,-9.2667,6.0,100.0,75.0,9.26,IE,1611982431.0
paveh,-8.7597,-35.1047,25.16,83.0,100.0,4.4,BR,1611982432.0
sechura,5.8933,95.3214,27.33,80.0,100.0,11.56,ID,1611982432.0
guerrero negro,46.7833,-92.1066,-3.0,68.0,90.0,5.66,US,1611982199.0
tommot,67.5447,133.385,-40.22,77.0,98.0,0.13,RU,1611982140.0
vaovai,-7.3111,-39.3042,22.17,76.0,100.0,1.37,BR,1611982433.0
tigil,66.3167,-179.1667,-30.45,84.0,0.0,3.13,RU,1611982433.0
frutigen,42.9744,140.5089,-3.77,95.0,100.0,7.5,JP,1611982433.0
galiwinku,,,,,,,,
roura,,,,,,,,
sorvag,,,,,,,,
port hardy,,,,,,,,
san cristobal,,,,,,,,
teluk nibung,,,,,,,,
cidreira,,,,,,,,
beringovskiy,,,,,,,,
hanmer springs,,,,,,,,
gouyave,,,,,,,,
gornopravdinsk,,,,,,,,
ust-ilimsk,,,,,,,,
minot,,,,,,,,
namie,,,,,,,,
bijie,,,,,,,,
samarai,,,,,,,,
kapit,,,,,,,,
iranshahr,,,,,,,,
daru,,,,,,,,
rio grande,,,,,,,,
east wenatchee,,,,,,,,
garowe,,,,,,,,
sinjah,,,,,,,,
lavrentiya,,,,,,,,
belyy yar,,,,,,,,
lovozero,,,,,,,,
west fargo,,,,,,,,
houma,,,,,,,,
sirfa,,,,,,,,
aklavik,,,,,,,,
creel,,,,,,,,
amapa,,,,,,,,
churapcha,,,,,,,,
arman,,,,,,,,
berdigestyakh,,,,,,,,
dumai,,,,,,,,
tra vinh,,,,,,,,
bow island,,,,,,,,
kloulklubed,,,,,,,,
sarakhs,,,,,,,,
krasnyy chikoy,,,,,,,,
skibbereen,,,,,,,,
tamandare,,,,,,,,
sabang,,,,,,,,
duluth,,,,,,,,
verkhoyansk,,,,,,,,
kamenskoye,,,,,,,,
barbalha,,,,,,,,
egvekinot,,,,,,,,
iwanai,,,,,,,,
